workout_time_usec,stroke_time_usec,tick_duration_usec,inst_drag,stroke_power,inst_spm
966005105,0,136653,1.068722,0,5.3
966220890,215785,40289,12.320648,13.38937,5.3
966355051,349946,30572,21.3858,34.77517,5.3
966581148,576043,27606,26.237768,86.360138,5.3
966693757,688652,28519,24.584072,110.94421,5.3
966818859,813754,33596,17.713152,128.657362,5.3
967082990,1077885,-33313,18.012002,128.657362,5.3
967181738,1176633,-22858,38.263752,128.657362,5.3
967267173,1262068,-21190,44.537922,128.657362,5.3
967349201,1344096,-20945,45.582152,128.657362,5.3
967437477,1432372,-23899,35.011712,128.657362,5.3
967568577,1563472,-42641,10.99805,128.657362,5.3
967729048,1723943,-35918,15.501312,128.657362,5.3
967880577,1875472,-44860,9.936882,128.657362,5.3
968103272,0,222695,0.403202,128,28.5
968297168,193896,38929,13.189248,13.59245,28.5
968536723,433451,25352,31.110272,67.05402,28.5
968633015,529743,23512,36.176018,103.230038,28.5
968724519,621247,22608,39.125858,142.355896,28.5
968815160,711888,22627,39.055122,181.411018,28.5
968910744,807472,24782,32.56245,213.973468,28.5
969261787,1158515,-35746,15.646418,213.973468,28.5
969373650,1270378,-26612,28.230098,213.973468,28.5
969474668,1371396,-24892,32.272578,213.973468,28.5
969574243,1470971,-26123,29.307168,213.973468,28.5
969687112,1583840,-31059,20.723922,213.973468,28.5
969837815,1734543,-42739,10.941842,213.973468,28.5
970003695,1900423,-41179,11.790368,213.973468,28.5
970211915,2108643,-70388,4.0328,213.973468,28.5
970365989,0,42809,10.90445,213,26.5
970565517,199528,40390,12.25125,23.1557,26.5
970702468,336479,31773,19.807218,42.962918,26.5
970816919,450930,27023,27.38,70.342918,26.5
970918807,552818,24566,33.1298,103.472718,26.5
971013154,647165,23082,37.532448,141.005166,26.5
971104999,739010,22854,38.28125,179.286416,26.5
971200111,834122,24468,33.390792,212.677208,26.5
971524268,1158279,-34755,16.554258,212.677208,26.5
971632206,1266217,-25583,30.544928,212.677208,26.5
971726645,1360656,-23108,37.445858,212.677208,26.5
971815146,1449157,-22308,40.176648,212.677208,26.5
971906938,1540949,-24875,32.3208,212.677208,26.5
972042271,1676282,-40911,11.946272,212.677208,26.5
972191522,1825533,-36109,15.334722,212.677208,26.5
972360535,1994546,-52775,7.174472,212.677208,26.5
972635158,0,91506,2.384928,212,26.4
972811653,176495,40084,12.440072,14.825,26.4
972957381,322223,33938,17.357832,32.182832,26.4
973081087,445929,29145,23.543522,55.726354,26.4
973188731,553573,25604,30.49805,86.224404,26.4
973287037,651879,24012,34.677792,120.902196,26.4
973381951,746793,23526,36.125,157.027196,26.4
973478389,843231,24594,33.064712,190.091908,26.4
973950849,1315691,-25196,31.490048,190.091908,26.4
974136021,1500863,-23931,34.911368,190.091908,26.4
974243956,1608798,-29962,22.271138,190.091908,26.4
974374362,1739204,-35408,15.949952,190.091908,26.4
974523359,1888201,-38874,13.230368,190.091908,26.4
974711328,2076170,-58088,5.923682,190.091908,26.4
975080426,0,56728,6.209288,190,24.5
975251483,171057,38693,13.354112,19.5634,24.5
975386314,305888,31081,20.698178,40.261578,24.5
975498640,418214,26359,28.773698,69.035276,24.5
975597735,517309,23767,35.397698,104.432974,24.5
975689826,609400,22616,39.090482,143.523456,24.5
975779637,699211,22332,40.087058,183.610514,24.5
975871447,791021,23431,36.414578,220.025092,24.5
976214126,1133700,-30943,20.878722,220.025092,24.5
976316867,1236441,-24711,32.740232,220.025092,24.5
976404862,1324436,-21366,43.8048,220.025092,24.5
976488463,1408037,-21891,41.733248,220.025092,24.5
976587534,1507108,-28001,25.504082,220.025092,24.5
976737082,1656656,-42013,11.3288,220.025092,24.5
976889587,1809161,-37539,14.183138,220.025092,24.5
977050448,1970022,-46100,9.409122,220.025092,24.5
977356102,0,47704,8.786432,220,26.3
977518478,162376,38268,13.655538,22.44197,26.3
977659481,303379,33228,18.108162,40.550132,26.3
977780656,424554,28787,24.123458,64.67359,26.3
977888495,532393,25943,29.706632,94.380222,26.3
977988532,632430,24637,32.934728,127.31495,26.3
978087045,730943,24537,33.21125,160.5262,26.3
978187811,831709,25747,30.155378,190.681578,26.3
978496177,1140075,-30428,21.595592,190.681578,26.3
978596553,1240451,-24391,33.603602,190.681578,26.3
978690190,1334088,-23207,37.134962,190.681578,26.3
978776363,1420261,-21654,42.651848,190.681578,26.3
978876117,1520015,-29652,22.740768,190.681578,26.3
979163371,1807269,-35467,15.893522,190.681578,26.3
979317884,1961782,-44801,9.963648,190.681578,26.3
979579287,0,85978,2.705138,190,26.9
979751360,172073,39371,12.893042,15.59818,26.9
979891712,312425,32327,19.133298,34.731478,26.9
980009656,430369,27804,25.862432,60.59391,26.9
980112751,533464,24718,32.72405,93.31796,26.9
980207945,628658,23418,36.4658,129.78376,26.9
980301837,722550,23424,36.448722,166.232482,26.9
980399926,820639,25434,30.905522,197.138004,26.9
980686060,1106773,-33881,17.416802,197.138004,26.9
980791003,1211716,-24658,32.88605,197.138004,26.9
980884693,1305406,-23451,36.363392,197.138004,26.9
980976427,1397140,-23587,35.938242,197.138004,26.9
981076525,1497238,-27151,27.128978,197.138004,26.9
981204878,1625591,-35724,15.668802,197.138004,26.9
981347471,1768184,-36312,15.158018,197.138004,26.9
981509576,1930289,-48016,8.669448,197.138004,26.9
981756432,0,65783,4.6208,197,27.5
981917819,161387,36438,15.059072,19.679872,27.5
982048628,292196,30651,21.281288,40.96116,27.5
982160418,403986,26497,28.486152,69.447312,27.5
982259645,503213,23919,34.9448,104.392112,27.5
982352689,596257,22935,38.0192,142.411312,27.5
982540270,783838,24325,33.7842,213.797304,27.5
982965672,1209240,-24560,33.146082,213.797304,27.5
983143890,1387458,-23315,36.791042,213.797304,27.5
983247654,1491222,-28686,24.304392,213.797304,27.5
983389023,1632591,-41048,11.868192,213.797304,27.5
983561671,1805239,-42317,11.167538,213.797304,27.5
983736802,1980370,-48308,8.5698,213.797304,27.5
983964475,0,62252,5.158472,213,27.1
984128015,163540,37441,14.2578,19.416272,27.1
984263241,298766,31267,20.454408,39.87068,27.1
984377702,413227,27208,27.01125,66.88193,27.1
984479752,515277,24530,33.227552,100.109482,27.1
984666943,702468,23020,37.740672,174.692682,27.1
984762003,797528,24325,33.7842,208.476882,27.1
985067649,1103174,-34774,16.53125,208.476882,27.1
985173099,1208624,-24996,32,208.476882,27.1
985266670,1302195,-23367,36.619682,208.476882,27.1
985362596,1398121,-25096,31.744512,208.476882,27.1
985472280,1507805,-31143,20.6082,208.476882,27.1
985603266,1638791,-33707,17.594312,208.476882,27.1
985745337,1780862,-37920,13.907538,208.476882,27.1
985918153,1953678,-51004,7.6832,208.476882,27.1
986202221,0,62184,5.171328,208,26.8
986367956,165735,37577,14.161842,19.33317,26.8
986503303,301082,31689,19.90805,39.24122,26.8
986619065,416844,27399,26.630402,65.871622,26.8
986721223,519002,24532,33.227552,99.099174,26.8
986815684,613463,23234,37.048832,136.148006,26.8
986908284,706063,23082,37.532448,173.680454,26.8
987004278,802057,24542,33.194952,206.875406,26.8
987349911,1147690,-33062,18.289152,206.875406,26.8
987453168,1250947,-24411,33.554432,206.875406,26.8
987542710,1340489,-21995,41.332232,206.875406,26.8
987630569,1428348,-23178,37.221192,206.875406,26.8
987736304,1534083,-29825,22.471808,206.875406,26.8
987876192,1673971,-38434,13.530402,206.875406,26.8
988028736,1826515,-38675,13.36445,206.875406,26.8
988198723,1996502,-49495,8.1608,206.875406,26.8
988496657,0,50251,7.9202,206,26.1
988660919,164262,37646,14.108672,22.028872,26.1
988796181,299524,31664,19.945928,41.9748,26.1
988911111,414454,27141,27.143712,69.118512,26.1
989106255,609598,23172,37.23845,140.25634,26.1
989199433,702776,23294,36.842528,177.098868,26.1
989296454,799797,24914,32.208338,209.307206,26.1
989594312,1097655,-32053,19.456322,209.307206,26.1
989695854,1199197,-24557,33.162368,209.307206,26.1
989789787,1293130,-23942,34.877952,209.307206,26.1
989887780,1391123,-25917,29.768328,209.307206,26.1
990002232,1505575,-31718,19.870208,209.307206,26.1
990149097,1652440,-39084,13.086728,209.307206,26.1
990297471,1800814,-36964,14.63405,209.307206,26.1
990453989,1957332,-43535,10.552418,209.307206,26.1
990773807,0,46570,9.219218,209,26.3
990937172,163365,38154,13.7288,22.948018,26.3
991076441,302634,32812,18.568418,41.516436,26.3
991195957,422150,28202,25.13405,66.650486,26.3
991300513,526706,24991,32.016002,98.666488,26.3
991396069,622262,23370,36.602568,135.269056,26.3
991489482,715675,23238,37.031618,172.300674,26.3
991585629,811822,24608,33.015938,205.316612,26.3
991898169,1124362,-33199,18.144288,205.316612,26.3
991999095,1225288,-23942,34.877952,205.316612,26.3
992093400,1319593,-24624,32.983442,205.316612,26.3
992194710,1420903,-26894,27.647048,205.316612,26.3
992312691,1538884,-32535,18.886658,205.316612,26.3
992465046,1691239,-41577,11.56805,205.316612,26.3
992613611,1839804,-36439,15.059072,205.316612,26.3
992782638,2008831,-50195,7.936128,205.316612,26.3
993039772,0,65946,4.596512,205,26.4
993204326,164554,37180,14.461442,19.057954,26.4
993337161,297389,30997,20.814152,39.872106,26.4
993450188,410416,26729,27.990162,67.862268,26.4
993550378,510606,24119,34.378632,102.2409,26.4
993643992,604220,23072,37.567112,139.808012,26.4
993736879,697107,23237,37.031618,176.83963,26.4
993833664,793892,24817,32.465682,209.305312,26.4
994143141,1103369,-32130,19.369088,209.305312,26.4
994248003,1208231,-25355,31.094498,209.305312,26.4
994350554,1310782,-26560,28.35045,209.305312,26.4
994463576,1423804,-30658,21.268242,209.305312,26.4
994595164,1555392,-34935,16.382088,209.305312,26.4
994738811,1699039,-36908,14.677362,209.305312,26.4
994884465,1844693,-37500,14.215112,209.305312,26.4
995056738,2016966,-51454,7.550498,209.305312,26.4
995313707,0,59216,5.698688,209,26.3
995480645,166938,37924,13.896992,19.59568,26.3
995616538,302831,31836,19.731762,39.327442,26.3
996550163,1236456,-25165,31.569458,200.238078,26.3
996648560,1334853,-25098,31.744512,200.238078,26.3
996752084,1438377,-27221,26.981858,200.238078,26.3
996871237,1557530,-33574,17.736968,200.238078,26.3
997042727,1729020,-44181,10.242338,200.238078,26.3
997191144,1877437,-36468,15.037128,200.238078,26.3
997351632,2037925,-45527,9.644832,200.238078,26.3
997622194,0,53307,7.03125,39,25.9
997787306,165112,37559,14.172488,21.203738,25.9
997920943,298749,31392,20.28845,41.492188,25.9
998036033,413839,27255,26.923122,68.41531,25.9
998138609,516415,24682,32.821202,101.236512,25.9
998235137,612943,23313,36.791042,138.027554,25.9
998331226,709032,24141,34.312328,172.339882,25.9
998433380,811186,27386,26.659602,198.999484,25.9
998742800,1120606,-38883,13.220082,198.999484,25.9
998854105,1231911,-26000,29.583432,198.999484,25.9
998953588,1331394,-24979,32.048018,198.999484,25.9
999059471,1437277,-28409,24.7808,198.999484,25.9
999176381,1554187,-31143,20.6082,198.999484,25.9
999316798,1694604,-35490,15.870978,198.999484,25.9
999463710,1841516,-39886,12.570098,198.999484,25.9
999649706,2027512,-53743,6.9192,198.999484,25.9
999918598,0,63926,4.892192,198,26.1
1000093429,174831,40373,12.261152,17.153344,26.1
1000232055,313457,31861,19.694088,36.847432,26.1
1000348013,429415,27364,26.703432,63.550864,26.1
1000450142,531544,24668,32.853618,96.404482,26.1
1000545456,626858,23432,36.414578,132.81906,26.1
1000639737,721139,23570,35.989128,168.808188,26.1
1000738361,819763,25492,30.764168,199.572356,26.1
1001047071,1128473,-34327,16.971138,199.572356,26.1
1001156068,1237470,-26604,28.245128,199.572356,26.1
1001258757,1340159,-25844,29.938322,199.572356,26.1
1001364531,1445933,-27847,25.790562,199.572356,26.1
1001488986,1570388,-33928,17.369618,199.572356,26.1
1001638335,1719737,-40282,12.320648,199.572356,26.1
1001789849,1871251,-37631,14.119298,199.572356,26.1
1001959126,2040528,-50351,7.888392,199.572356,26.1
1002216282,0,58970,5.74605,199,26.1
1002384994,168712,38419,13.540808,19.286858,26.1
1002523136,306854,32324,19.133298,38.420156,26.1
1002640460,424178,27710,26.035328,64.455484,26.1
1002743866,527584,24883,32.288648,96.744132,26.1
1002840261,623979,23777,35.36405,132.108182,26.1
1002935797,719515,23944,34.877952,166.986134,26.1
1003036409,820127,26339,28.819232,195.805366,26.1
1003312528,1096246,-35532,15.837192,195.805366,26.1
1003419080,1202798,-25156,31.60125,195.805366,26.1
1003515552,1299270,-24494,33.325448,195.805366,26.1
1003615941,1399659,-26804,27.8258,195.805366,26.1
1003740161,1523879,-35856,15.545888,195.805366,26.1
1003906059,1689777,-41313,11.7128,195.805366,26.1
1004053005,1836723,-36736,14.818568,195.805366,26.1
1004222516,2006234,-50435,7.856648,195.805366,26.1
1004441536,0,219020,0.415872,195,26.9
1004608230,166694,37311,14.3648,14.780672,26.9
1004741520,299984,31123,20.646738,35.42741,26.9
1004854258,412722,26591,28.2752,63.70261,26.9
1004953115,511579,23776,35.36405,99.06666,26.9
1005045129,603593,22614,39.108168,138.174828,26.9
1005135785,694249,22677,38.878562,177.05339,26.9
1005229661,788125,23982,34.761122,211.814512,26.9
1005552176,1110640,-34801,16.508258,211.814512,26.9
1005662469,1220933,-26467,28.546568,211.814512,26.9
1005764828,1323292,-26055,29.460488,211.814512,26.9
1005869594,1428058,-27923,25.647122,211.814512,26.9
1005996532,1554996,-35493,15.870978,211.814512,26.9
1006153876,1712340,-39996,12.5,211.814512,26.9
1006292963,1851427,-34261,17.029448,211.814512,26.9
1006451495,2009959,-47366,8.912642,211.814512,26.9
1006714119,0,59759,5.597858,211,26.4
1006878859,164740,37647,14.108672,19.70653,26.4
1007131702,417583,27532,26.382848,65.658146,26.4
1007234313,520194,24594,33.064712,98.722858,26.4
1007329058,614939,23327,36.739592,135.46245,26.4
1007422527,708408,23282,36.89405,172.3565,26.4
1007518949,804830,24675,32.837408,205.193908,26.4
1008141595,1427476,-27015,27.394802,205.193908,26.4
1008266373,1552254,-33507,17.808512,205.193908,26.4
1008395869,1681750,-31645,19.9712,205.193908,26.4
1008522206,1808087,-33230,18.108162,205.193908,26.4
1008676191,1962072,-45568,9.627272,205.193908,26.4
1009009008,0,46866,9.099378,205,26.1
1009172431,163423,37853,13.949762,23.04914,26.1
1009306623,297615,31512,20.135858,43.184998,26.1
1009421986,412978,27378,26.674208,69.859206,26.1
1009525599,516591,25015,31.952018,101.811224,26.1
1009622900,613892,23993,34.727778,136.539002,26.1
1009718763,709755,23972,34.794482,171.333484,26.1
1009817546,808538,25273,31.299872,202.633356,26.1
1010146482,1137474,-37311,14.3648,202.633356,26.1
1010260358,1251350,-26565,28.335392,202.633356,26.1
1010360193,1351185,-24616,32.999688,202.633356,26.1
1010459672,1450664,-26193,29.138978,202.633356,26.1
1010576451,1567443,-32789,18.592802,202.633356,26.1
1010745531,1736523,-47143,8.997282,202.633356,26.1
1010905100,1896092,-37904,13.918088,202.633356,26.1
1011079578,2070570,-52338,7.2962,202.633356,26.1
1011364738,0,49055,8.306888,202,25.4
1011528010,163272,37475,14.236448,22.543336,25.4
1011662830,298092,31818,19.744328,42.287664,25.4
1011778094,413356,27071,27.276498,69.564162,25.4
1011879262,514524,24233,34.047752,103.611914,25.4
1011973019,608281,23020,37.740672,141.352586,25.4
1012065327,700589,23115,37.428552,178.781138,25.4
1012161061,796323,24477,33.37445,212.155588,25.4
1012507251,1142513,-37262,14.396978,212.155588,25.4
1012628172,1263434,-29275,23.32445,212.155588,25.4
1012740445,1375707,-27906,25.675778,212.155588,25.4
1012850522,1485784,-28705,24.262578,212.155588,25.4
1012968956,1604218,-32205,19.28205,212.155588,25.4
1013127863,1763125,-44012,10.323968,212.155588,25.4
1013289632,1924894,-39632,12.731058,212.155588,25.4
1013462916,2098178,-51311,7.589408,212.155588,25.4
1013729983,0,61770,5.235848,212,25.3
1013899914,169931,38794,13.281858,18.517706,25.3
1014036043,306060,31444,20.2248,38.742506,25.3
1014250729,520746,24050,34.577928,101.027002,25.3
1014344225,614242,22951,37.966898,138.9939,25.3
1014436312,706329,22952,37.949472,176.943372,25.3
1014531536,801553,24346,33.734898,210.67827,25.3
1014876081,1146098,-36261,15.202098,210.67827,25.3
1014994294,1264311,-28660,24.346242,210.67827,25.3
1015102365,1372382,-27197,27.025952,210.67827,25.3
1015210925,1480942,-28521,24.584072,210.67827,25.3
1015341102,1611119,-37367,14.321952,210.67827,25.3
1015539152,1809169,-50454,7.856648,210.67827,25.3
1015694040,1964057,-36191,15.268338,210.67827,25.3
1015863487,2133504,-52722,7.189632,210.67827,25.3
1016069400,0,205913,0.47045,210,25.6
1016245092,175692,40240,12.35045,12.8209,25.6
1016386226,316826,32202,19.28205,32.10295,25.6
1016503747,434347,27803,25.862432,57.965382,25.6
1016606710,537310,24653,32.902272,90.867654,25.6
1016701867,632467,23419,36.4658,127.333454,25.6
1016795236,725836,23315,36.791042,164.124496,25.6
1016891654,822254,24654,32.902272,197.026768,25.6
1017257228,1187828,-39504,12.811922,197.026768,25.6
1017374190,1304790,-27598,26.252258,197.026768,25.6
1017582132,1512732,-27804,25.862432,197.026768,25.6
1017712554,1643154,-37677,14.087432,197.026768,25.6
1017893287,1823887,-44676,10.017288,197.026768,25.6
1018044817,1975417,-37235,14.41845,197.026768,25.6
1018223816,2154416,-55113,6.581192,197.026768,25.6
1018440802,0,216986,0.4232,197,25.3
1018614010,173208,39395,12.882888,13.306088,25.3
1018755671,314869,32840,18.54405,31.850138,25.3
1018874260,433458,27794,25.876818,57.726956,25.3
1018976923,536121,24531,33.227552,90.954508,25.3
1019071011,630209,23089,37.515122,128.46963,25.3
1019162894,722092,22814,38.421378,166.891008,25.3
1019257253,816451,24119,34.378632,201.26964,25.3
1019638222,1197420,-40489,12.191922,201.26964,25.3
1019764552,1323750,-29219,23.420168,201.26964,25.3
1019873081,1432279,-26789,27.855648,201.26964,25.3
1019981133,1540331,-28574,24.486002,201.26964,25.3
1020113870,1673068,-37271,14.396978,201.26964,25.3
1020280443,1839641,-42735,10.9512,201.26964,25.3
1020437319,1996517,-38966,13.168712,201.26964,25.3
1020618192,2177390,-54331,6.7712,201.26964,25.3
1020879259,0,74393,3.612672,201,24.6
1021050885,171626,39034,13.117442,16.730114,24.6
1021188653,309394,31801,19.769472,36.499586,24.6
1021303424,424165,27070,27.291272,63.790858,24.6
1021403819,524560,24061,34.544672,98.33553,24.6
1021497476,618217,23002,37.792818,136.128348,24.6
1021590360,711101,23195,37.169442,173.29779,24.6
1021686438,807179,24542,33.194952,206.492742,24.6
1022004755,1125496,-34682,16.623378,206.492742,24.6
1022116112,1236853,-26400,28.682738,206.492742,24.6
1022219570,1340311,-26362,28.773698,206.492742,24.6
1022328980,1449721,-29300,23.283488,206.492742,24.6
1022466523,1587264,-39654,12.710882,206.492742,24.6
1022641964,1762705,-44051,10.3058,206.492742,24.6
1022797380,1918121,-37880,13.928642,206.492742,24.6
1022963802,2084543,-48397,8.536712,206.492742,24.6
1023277129,0,53461,6.9938,206,25
1023446677,169548,38812,13.271552,20.265352,25
1023584033,306904,32084,19.418912,39.684264,25
1023701623,424494,27998,25.504082,65.188346,25
1023807372,530243,25541,30.65445,95.842796,25
1023906642,629513,24447,33.4562,129.298996,25
1024004428,727299,24464,33.407138,162.706134,25
1024105663,828534,25947,29.706632,192.412766,25
1024465073,1187944,-36344,15.136002,192.412766,25
1024573345,1296216,-25663,30.357632,192.412766,25
1024670886,1393757,-24590,33.064712,192.412766,25
1024770865,1493736,-26328,28.849608,192.412766,25
1024890124,1612995,-34074,17.216712,192.412766,25
1025058702,1781573,-42231,11.205378,192.412766,25
1025198346,1921217,-33650,17.653682,192.412766,25
1025349636,2072507,-44213,10.224242,192.412766,25
1025641056,0,51082,7.659698,192,25.3
1025808090,167034,38139,13.739282,21.39898,25.3
1025943604,302548,31508,20.135858,41.534838,25.3
1026057114,416058,26734,27.9752,69.510038,25.3
1026157455,516399,24119,34.378632,103.88867,25.3
1026251707,610651,23226,37.06605,140.95472,25.3
1026344922,703866,23363,36.6368,177.59152,25.3
1026442166,801110,24970,32.064032,209.655552,25.3
1026797893,1156837,-44278,10.197128,209.655552,25.3
1026917227,1276171,-27101,27.217442,209.655552,25.3
1027019310,1378254,-26054,29.460488,209.655552,25.3
1027127582,1486526,-29320,23.2562,209.655552,25.3
1027268012,1626956,-41110,11.829248,209.655552,25.3
1027428828,1787772,-38659,13.374792,209.655552,25.3
1027578720,1937664,-38546,13.457672,209.655552,25.3
1027759418,2118362,-53835,6.896898,209.655552,25.3
1028010169,0,58114,5.9168,209,25.3
1028174688,164519,36921,14.666528,20.583328,25.3
1028306659,296490,30752,21.138002,41.72133,25.3
1028416705,406536,25794,30.046752,71.768082,25.3
1028513135,502966,23168,37.255712,109.023794,25.3
1028692958,682789,22509,39.462728,188.645244,25.3
1028785913,775744,23844,35.162498,223.807742,25.3
1029154101,1143932,-40683,12.083528,223.807742,25.3
1029277548,1267379,-29542,22.91645,223.807742,25.3
1029392351,1382182,-29416,23.106402,223.807742,25.3
1029512317,1502148,-31997,19.53125,223.807742,25.3
1029664325,1654156,-43402,10.616832,223.807742,25.3
1029837071,1826902,-42267,11.18645,223.807742,25.3
1029994315,1984146,-39445,12.85245,223.807742,25.3
1030180512,2170343,-56208,6.329682,223.807742,25.3
1030378519,0,198007,0.51005,223,25.3
1030547803,169284,38116,13.760258,14.270308,25.3
1030683193,304674,31514,20.135858,34.406166,25.3
1030898322,519803,24134,34.328898,96.233592,25.3
1030992343,613824,23076,37.549778,133.78337,25.3
1031085595,707076,23289,36.859698,170.643068,25.3
1031182803,804284,25084,31.776392,202.41946,25.3
1031512423,1133904,-39346,12.913362,202.41946,25.3
1031633989,1255470,-29401,23.133602,202.41946,25.3
1031749790,1371271,-30054,22.137858,202.41946,25.3
1031872423,1493904,-32240,19.232402,202.41946,25.3
1032017798,1639279,-40303,12.310722,202.41946,25.3
1032180368,1801849,-40327,12.290882,202.41946,25.3
1032331500,1952981,-38217,13.686912,202.41946,25.3
1032503512,2124993,-50077,7.968032,202.41946,25.3
1032786303,0,51765,7.457522,202,24.9
1032947698,161395,35936,15.479048,22.93657,24.9
1033074626,288323,29544,22.902912,45.839482,24.9
1033181712,395409,25217,31.44245,77.281932,24.9
1033276994,490691,22985,37.845,115.126932,24.9
1033366484,580181,22042,41.150592,156.277524,24.9
1033455507,669204,22331,40.104968,196.382492,24.9
1033548313,762010,24089,34.461602,230.844094,24.9
1033925574,1139271,-44120,10.269512,230.844094,24.9
1034063520,1277217,-33108,18.2408,230.844094,24.9
1034199441,1413138,-36234,15.224162,230.844094,24.9
1034368190,1581887,-44430,10.125,230.844094,24.9
1034541779,1755476,-42482,11.073218,230.844094,24.9
1034696293,1909990,-37650,14.108672,230.844094,24.9
1034840999,2054696,-37404,14.289858,230.844094,24.9
1035030419,2244116,-59789,5.591168,230.844094,24.9
1035201343,0,170924,0.68445,230,24.8
1035381860,180517,38813,13.271552,13.956002,24.8
1035519771,318428,32365,19.083842,33.039844,24.8
1035636949,435606,27588,26.266752,59.306596,24.8
1035739659,538316,24586,33.080978,92.387574,24.8
1035834537,633194,23319,36.773888,129.161462,24.8
1035928270,726927,23419,36.4658,165.627262,24.8
1036025142,823799,24744,32.659362,198.286624,24.8
1036421490,1220147,-47100,9.014258,198.286624,24.8
1036567299,1365956,-34900,16.41645,198.286624,24.8
1036707437,1506094,-35734,15.657608,198.286624,24.8
1036858631,1657288,-40558,12.15245,198.286624,24.8
1037044198,1842855,-50563,7.817058,198.286624,24.8
1037224106,2022763,-42396,11.120328,198.286624,24.8
1037388333,2186990,-43325,10.653728,198.286624,24.8
1037597173,2395830,-60540,5.451602,198.286624,24.8
1037778175,0,181002,0.609408,198,23.2
1037956584,178409,39223,12.994802,13.60421,23.2
1038096384,318209,32720,18.678272,32.282482,23.2
1038212966,434791,27250,26.923122,59.205604,23.2
1038314419,536244,24195,34.163378,93.368982,23.2
1038408066,629891,22934,38.0192,131.388182,23.2
1038499929,721754,22933,38.0192,169.407382,23.2
1038594635,816460,24104,34.411808,203.81919,23.2
1039008953,1230778,-47767,8.761298,203.81919,23.2
1039156944,1378769,-33225,18.108162,203.81919,23.2
1039301573,1523398,-37552,14.172488,203.81919,23.2
1039469622,1691447,-45884,9.496082,203.81919,23.2
1039650271,1872096,-45647,9.5922,203.81919,23.2
1039819596,2041421,-40575,12.142592,203.81919,23.2
1039977501,2199326,-40775,12.024608,203.81919,23.2
1040180781,2402606,-64993,4.730888,203.81919,23.2
1040523065,0,41762,11.462472,203,21.8
1040669305,146240,33681,17.629922,29.092394,21.8
1040791035,267970,28531,24.556032,53.648426,21.8
1040897421,374356,25543,30.638792,84.287218,21.8
1040995206,472141,23962,34.827858,119.115076,21.8
1041091578,568513,24102,34.428402,153.543478,21.8
1041191982,668917,25836,29.9538,183.497278,21.8
1041524476,1001411,-41568,11.56805,183.497278,21.8
1041665493,1142428,-34953,16.3592,183.497278,21.8
1041815687,1292622,-41078,11.848712,183.497278,21.8
1042003164,1480099,-49371,8.20125,183.497278,21.8
1042197239,1674174,-49554,8.144648,183.497278,21.8
1042371893,1848828,-41069,11.848712,183.497278,21.8
1042534123,2011058,-42211,11.224322,183.497278,21.8
1042721188,2198123,-53647,6.948992,183.497278,21.8
1042994444,0,58028,5.937458,183,24.2
1043166401,171957,37146,14.493728,20.431186,24.2
1043296330,301886,30606,21.346578,41.777764,24.2
1043408555,414111,26727,27.990162,69.767926,24.2
1043510374,515930,24671,32.853618,102.621544,24.2
1043606723,612279,23896,35.011712,137.633256,24.2
1043703867,709423,24426,33.505298,171.138554,24.2
1043805151,810707,25957,29.675808,200.814362,24.2
1044155790,1161346,-60932,5.385762,200.814362,24.2
1044330326,1335882,-42290,11.176992,200.814362,24.2
1044498271,1503827,-43497,10.570802,200.814362,24.2
1044675181,1680737,-46047,9.426482,200.814362,24.2
1044853838,1859394,-44188,10.242338,200.814362,24.2
1045009627,2015183,-37961,13.875912,200.814362,24.2
1045167672,2173228,-41880,11.395538,200.814362,24.2
1045357925,2363481,-53228,7.053768,200.814362,24.2
1045655374,0,52397,7.280928,200,22.5
1045824410,169036,37555,14.172488,21.453416,22.5
1045958561,303187,31002,20.80125,42.254666,22.5
1046070498,415124,26501,28.471058,70.725724,22.5
1046170209,514835,23983,34.761122,105.486846,22.5
1046263093,607719,22892,38.158848,143.645694,22.5
1046355495,700121,23123,37.393952,181.039646,22.5
1046451866,796492,24824,32.449568,213.489214,22.5
1046797565,1142191,-52684,7.204808,213.489214,22.5
1046971992,1316618,-42129,11.262258,213.489214,22.5
1047136264,1480890,-42345,11.148642,213.489214,22.5
1047309896,1654522,-45818,9.522248,213.489214,22.5
1047497391,1842017,-47747,8.769672,213.489214,22.5
1047660246,2004872,-37960,13.875912,213.489214,22.5
1047804841,2149467,-36863,14.709888,213.489214,22.5
1047972750,2317376,-48172,8.61125,213.489214,22.5
1048303667,0,50178,7.936128,213,22.6
1048465401,161734,35830,15.5682,23.504328,22.6
1048595076,291409,30145,22.004978,45.509306,22.6
1048800753,497086,23388,36.55125,112.122814,22.6
1048891629,587962,22459,39.640608,151.763422,22.6
1048982754,679087,22952,37.949472,189.712894,22.6
1049078353,774686,24711,32.740232,222.453126,22.6
1049431122,1127455,-56619,6.237512,222.453126,22.6
1049602758,1299091,-40829,11.995202,222.453126,22.6
1049763697,1460030,-43118,10.755522,222.453126,22.6
1049938252,1634585,-46368,9.296672,222.453126,22.6
1050122003,1818336,-45717,9.565938,222.453126,22.6
1050277929,1974262,-36832,14.74245,222.453126,22.6
1050422407,2118740,-38114,13.760258,222.453126,22.6
1050598017,2294350,-49395,8.193152,222.453126,22.6
1050949977,0,50341,7.888392,222,22.6
1051114172,164195,36251,15.213128,23.10152,22.6
1051242848,292871,29867,22.418208,45.519728,22.6
1051350816,400839,25644,30.404402,75.92413,22.6
1051447856,497879,23520,36.142002,112.066132,22.6
1051539099,589122,22601,39.143552,151.209684,22.6
1051630265,680288,22813,38.421378,189.631062,22.6
1051725093,775116,24255,33.981768,223.61283,22.6
1052088099,1138122,-51853,7.434368,223.61283,22.6
1052257892,1307915,-40693,12.073698,223.61283,22.6
1052425266,1475289,-45412,9.697608,223.61283,22.6
1052623936,1673959,-51295,7.597202,223.61283,22.6
1052826170,1876193,-50726,7.769682,223.61283,22.6
1052998574,2048597,-39776,12.640392,223.61283,22.6
1053149921,2199944,-40647,12.1032,223.61283,22.6
1053341561,2391584,-54464,6.741792,223.61283,22.6
1053582955,0,241394,0.342792,223,22.7
1053758547,175592,38440,13.530402,13.873194,22.7
1053895384,312429,31883,19.668992,33.542186,22.7
1054010512,427557,27115,27.187938,60.730124,22.7
1054112645,529690,24580,33.097248,93.827372,22.7
1054208114,625159,23541,36.074018,129.90139,22.7
1054302969,720014,23792,35.330418,165.231808,22.7
1054401138,818183,25123,31.6808,196.912608,22.7
1054771029,1188074,-54995,6.610248,196.912608,22.7
1054947985,1365030,-41648,11.529602,196.912608,22.7
1055119267,1536312,-44825,9.9458,196.912608,22.7
1055300250,1717295,-48285,8.578082,196.912608,22.7
1055499606,1916651,-49826,8.048072,196.912608,22.7
1055667625,2084670,-38084,13.78125,196.912608,22.7
1055812759,2229804,-37162,14.4722,196.912608,22.7
1055987402,2404447,-50915,7.714592,196.912608,22.7
1056274802,0,64654,4.780232,196,22.2
1056453627,178825,39831,12.6002,17.380432,22.2
1056594029,319227,32610,18.800712,36.181144,22.2
1056710255,435453,27252,26.923122,63.104266,22.2
1056812026,537224,24413,33.554432,96.658698,22.2
1056906750,631948,23351,36.671048,133.329746,22.2
1057000550,725748,23495,36.227072,169.556818,22.2
1057097347,822545,24671,32.853618,202.410436,22.2
1057491105,1216303,-57965,5.95125,202.410436,22.2
1057676422,1401620,-45808,9.530978,202.410436,22.2
1057879917,1605115,-56793,6.1952,202.410436,22.2
1058093447,1818645,-51999,7.395858,202.410436,22.2
1058283082,2008280,-46359,9.305298,202.410436,22.2
1058443434,2168632,-37032,14.58,202.410436,22.2
1058581892,2307090,-35719,15.668802,202.410436,22.2
1058746944,2472142,-46659,9.184898,202.410436,22.2
1059060935,0,52169,7.342112,202,21.5
1059228729,167794,37313,14.3648,21.706912,21.5
1059360207,299272,30392,21.6482,43.355112,21.5
1059471043,410108,26331,28.834418,72.18953,21.5
1059570070,509135,24004,34.69445,106.88398,21.5
1059755778,694843,23256,36.962802,181.517982,21.5
1059851729,790794,24480,33.358112,214.876094,21.5
1060235208,1174273,-55918,6.393888,214.876094,21.5
1060416119,1355184,-44914,9.910152,214.876094,21.5
1060600688,1539753,-48191,8.61125,214.876094,21.5
1060803953,1743018,-52453,7.265672,214.876094,21.5
1061010425,1949490,-50470,7.848722,214.876094,21.5
1061178545,2117610,-38784,13.292168,214.876094,21.5
1061326973,2266038,-38004,13.844322,214.876094,21.5
1061508946,2448011,-55161,6.566688,214.876094,21.5
1061794018,0,55651,6.451232,214,21.9
1061965650,171632,37738,14.034402,20.485634,21.9
1062098513,304495,30763,21.125,41.610634,21.9
1062308679,514661,23916,34.961522,105.528206,21.9
1062401738,607720,23080,37.532448,143.060654,21.9
1062495216,701198,23478,36.278162,179.338816,21.9
1062593535,799517,25622,30.451208,209.790024,21.9
1062961629,1167611,-58718,5.800418,209.790024,21.9
1063127855,1333837,-39350,12.913362,209.790024,21.9
1063303178,1509160,-47894,8.711138,209.790024,21.9
1063506793,1712775,-53734,6.926642,209.790024,21.9
1063707411,1913393,-47127,8.997282,209.790024,21.9
1063865479,2071461,-37550,14.183138,209.790024,21.9
1064016209,2222191,-40017,12.480008,209.790024,21.9
1064192077,2398059,-48785,8.396802,209.790024,21.9
1064503268,0,51414,7.558272,209,22.1
1064666199,162931,35886,15.523592,23.081864,22.1
1064793888,290620,29690,22.686848,45.768712,22.1
1064902557,399289,25773,30.1088,75.877512,22.1
1064999975,496707,23608,35.87045,111.747962,22.1
1065091919,588651,22753,38.63205,150.380012,22.1
1065279142,775874,24462,33.407138,221.597358,22.1
1065677926,1174658,-61750,5.242322,221.597358,22.1
1065871108,1367840,-46461,9.262208,221.597358,22.1
1066057106,1553838,-48954,8.339528,221.597358,22.1
1066268192,1764924,-55948,6.386738,221.597358,22.1
1066462861,1959593,-45966,9.46125,221.597358,22.1
1066625981,2122713,-38401,13.561632,221.597358,22.1
1066774607,2271339,-38471,13.509602,221.597358,22.1
1066957676,2454408,-52410,7.280928,221.597358,22.1
1067240668,0,55343,6.523272,221,21.9
1067412307,171639,37634,14.119298,20.64257,21.9
1067547102,306434,31518,20.123168,40.765738,21.9
1067660482,419814,26743,27.960242,68.72598,21.9
1067760602,519934,24134,34.328898,103.054878,21.9
1067947378,706710,23460,36.329288,176.830024,21.9
1068044301,803633,24744,32.659362,209.489386,21.9
1068406551,1165883,-62149,5.177762,209.489386,21.9
1068602076,1361408,-47801,8.752928,209.489386,21.9
1068805863,1565195,-53024,7.10645,209.489386,21.9
1069039535,1798867,-60037,5.54445,209.489386,21.9
1069223816,1983148,-44066,10.296722,209.489386,21.9
1069382894,2142226,-37762,14.023808,209.489386,21.9
1069532980,2292312,-39077,13.096962,209.489386,21.9
1069707565,2466897,-50133,7.952072,209.489386,21.9
1070013102,0,54121,6.822818,209,21.6
1070182218,169116,36829,14.74245,21.565268,21.6
1070310755,297653,29746,22.592642,44.15791,21.6
1070419142,406040,25694,30.279762,74.437672,21.6
1070516061,502959,23523,36.142002,110.579674,21.6
1070607600,594498,22660,38.949138,149.528812,21.6
1070699560,686458,23104,37.463168,186.99198,21.6
1070795328,782226,24478,33.37445,220.36643,21.6
1071223884,1210782,-63678,4.9298,220.36643,21.6
1071414603,1401501,-46259,9.339842,220.36643,21.6
1071618350,1605248,-58686,5.800418,220.36643,21.6
1071850660,1837558,-59915,5.571122,220.36643,21.6
1072046417,2033315,-47220,8.963378,220.36643,21.6
1072217505,2204403,-40092,12.440072,220.36643,21.6
1072370831,2357729,-39562,12.771458,220.36643,21.6
1072547269,2534167,-51018,7.6832,220.36643,21.6
1072795290,0,248021,0.324818,220,21.5
1072976058,180768,39414,12.872738,13.197556,21.5
1073230151,434861,27190,27.040658,59.731982,21.5
1073331530,536240,24271,33.9488,93.680782,21.5
1073425301,630011,23075,37.549778,131.23056,21.5
1073517790,722500,23089,37.515122,168.745682,21.5
1073612694,817404,24213,34.1138,202.859482,21.5
1074023988,1228698,-68795,4.222418,202.859482,21.5
1074222705,1427415,-46999,9.048258,202.859482,21.5
1074440259,1644969,-62391,5.132808,202.859482,21.5
1074685347,1890057,-63943,4.885938,202.859482,21.5
1074881470,2086180,-46739,9.150642,202.859482,21.5
1075044881,2249591,-38177,13.718322,202.859482,21.5
1075194166,2398876,-38985,13.15845,202.859482,21.5
1075385868,2590578,-57022,6.146018,202.859482,21.5
1075699515,0,57922,5.958152,202,20.6
1075882189,182674,39744,12.660512,18.618664,20.6
1076017805,318290,31296,20.41605,39.034714,20.6
1076130967,431452,26668,28.110002,67.144716,20.6
1076231207,531692,24191,34.163378,101.308094,20.6
1076324519,625004,22936,38.001762,139.309856,20.6
1076416968,717453,23077,37.549778,176.859634,20.6
1076512998,813483,24656,32.88605,209.745684,20.6
1076902814,1203299,-67401,4.398578,209.745684,20.6
1077100725,1401210,-48984,8.331362,209.745684,20.6
1077334684,1635169,-67944,4.327682,209.745684,20.6
1077604541,1905026,-64159,4.854728,209.745684,20.6
1077791385,2091870,-45063,9.847922,209.745684,20.6
1077954324,2254809,-39540,12.791682,209.745684,20.6
1078113932,2414417,-41360,11.683778,209.745684,20.6
1078302017,2602502,-54755,6.668552,209.745684,20.6
1078628423,0,54909,6.632082,209,20.4
1078803749,175326,38713,13.343778,19.97586,20.4
1078938322,309899,30926,20.904578,40.880438,20.4
1079050347,421924,26389,28.713042,69.59348,20.4
1079149124,520701,23781,35.36405,104.95753,20.4
1079241115,612692,22745,38.649632,143.607162,20.4
1079331987,703564,22782,38.526642,182.133804,20.4
1079426314,797891,24168,34.229538,216.363342,20.4
1079785483,1157060,-56112,6.351048,216.363342,20.4
1079978893,1350470,-48316,8.561522,216.363342,20.4
1080188906,1560483,-57353,6.076098,216.363342,20.4
1080413715,1785292,-58486,5.841362,216.363342,20.4
1080638406,2009983,-54762,6.668552,216.363342,20.4
1080818488,2190065,-40680,12.083528,216.363342,20.4
1080965467,2337044,-36849,14.720738,216.363342,20.4
1081131627,2503204,-47219,8.963378,216.363342,20.4
1081473376,0,51257,7.605,216,21
1081636085,162709,36410,15.081032,22.686032,21
1081766152,292776,30122,22.031522,44.717554,21
1081874565,401189,25729,30.201992,74.919546,21
1081970907,497531,23245,37.014408,111.933954,21
1082061240,587864,22356,40.015458,151.949412,21
1082151623,678247,22668,38.913842,190.863254,21
1082246557,773181,24736,32.675528,223.538782,21
1082631594,1158218,-64593,4.792608,223.538782,21
1082832865,1359489,-50172,7.944098,223.538782,21
1083065341,1591965,-65305,4.687922,223.538782,21
1083326239,1852863,-63465,4.96125,223.538782,21
1083521173,2047797,-46328,9.313928,223.538782,21
1083687447,2214071,-39327,12.923528,223.538782,21
1083843297,2369921,-41169,11.800082,223.538782,21
1084040290,2566914,-59501,5.6448,223.538782,21
1084380613,0,54464,6.741792,223,20.6
1084555421,174808,38221,13.686912,20.428704,20.6
1084688305,307692,30749,21.151008,41.579712,20.6
1084800093,419480,26470,28.531458,70.11117,20.6
1084900229,519616,24109,34.395218,104.506388,20.6
1084993750,613137,23135,37.359368,141.865756,20.6
1085087317,706704,23432,36.414578,178.280334,20.6
1085185004,804391,25156,31.60125,209.881584,20.6
1085542079,1161466,-61384,5.307282,209.881584,20.6
1085731853,1351240,-44633,10.0352,209.881584,20.6
1085922989,1542376,-53071,7.098912,209.881584,20.6
1086149002,1768389,-58419,5.855042,209.881584,20.6
1086356586,1975973,-49509,8.152722,209.881584,20.6
1086530948,2150335,-40061,12.460032,209.881584,20.6
1086689610,2308997,-41384,11.674112,209.881584,20.6
1086871128,2490515,-52631,7.22,209.881584,20.6
1087120466,0,73597,3.688328,209,21.8
1087298193,177727,39000,13.148192,16.83652,21.8
1087437300,316834,32347,19.108562,35.945082,21.8
1087552396,431930,26944,27.543042,63.488124,21.8
1087653321,532855,24255,33.981768,97.469892,21.8
1087746771,626305,23094,37.4978,134.967692,21.8
1087839569,719103,23294,36.842528,171.81022,21.8
1087935608,815142,24506,33.2928,205.10302,21.8
1088355766,1235300,-61453,5.294258,205.10302,21.8
1088536727,1416261,-42672,10.979298,205.10302,21.8
1088721781,1601315,-50687,7.777568,205.10302,21.8
1088949533,1829067,-61296,5.320322,205.10302,21.8
1089155596,2035130,-48010,8.669448,205.10302,21.8
1089326374,2205908,-40477,12.2018,205.10302,21.8
1089488283,2367817,-42223,11.214848,205.10302,21.8
1089684259,2563793,-55282,6.537728,205.10302,21.8
1089943518,0,57249,6.097032,205,21.2
1090115881,172363,38421,13.540808,19.63784,21.2
1090252097,308579,31329,20.364962,40.002802,21.2
1090365178,421660,26858,27.721458,67.72426,21.2
1090465627,522109,24186,34.179912,101.904172,21.2
1090559328,615810,23226,37.06605,138.970222,21.2
1090652298,708780,23226,37.06605,176.036272,21.2
1090748204,804686,24463,33.407138,209.44341,21.2
1091201172,1257654,-59070,5.725728,209.44341,21.2
1091397921,1454403,-47072,9.022752,209.44341,21.2
1091595255,1651737,-53222,7.053768,209.44341,21.2
1091804498,1860980,-52028,7.388168,209.44341,21.2
1091975812,2032294,-40243,12.340512,209.44341,21.2
1092118037,2174519,-33941,17.357832,209.44341,21.2
1092253711,2310193,-36033,15.40125,209.44341,21.2
1092434137,2490619,-53833,6.896898,209.44341,21.2
1092866364,0,43747,10.44245,209,20.5
1093009314,142950,32698,18.702728,29.145178,20.5
1093127758,261394,27644,26.165378,55.310556,20.5
1093228786,362422,24188,34.179912,89.490468,20.5
1093320185,453821,22128,40.842722,130.33319,20.5
1093406506,540142,21355,43.842248,174.175438,20.5
1093491937,625573,21289,44.123618,218.299056,20.5
1093579651,713287,22360,39.997568,258.296624,20.5
1093709704,843340,48307,8.5698,266.866424,20.5
1094094430,1228066,-57694,6.006578,266.866424,20.5
1094294063,1427699,-49569,8.136578,266.866424,20.5
1094504888,1638524,-58512,5.841362,266.866424,20.5
1094735351,1868987,-57080,6.132002,266.866424,20.5
1094924455,2058091,-44924,9.90125,266.866424,20.5
1095088961,2222597,-40450,12.221568,266.866424,20.5
1095249231,2382867,-40747,12.044232,266.866424,20.5
1095435132,2568768,-52500,7.250432,266.866424,20.5
1095758732,0,50854,7.730312,266,20.7
1095914610,155878,34446,16.854818,24.58513,20.7
1096037183,278451,28385,24.808968,49.394098,20.7
1096141612,382880,25061,31.8402,81.234298,20.7
1096235857,477125,22755,38.614472,119.84877,20.7
1096324720,565988,22046,41.13245,160.98122,20.7
1096413867,655135,22744,38.649632,199.630852,20.7
1096504771,746039,23280,36.89405,236.524902,20.7
1096649419,890687,56530,6.251648,242.77655,20.7
1097035173,1276441,-61307,5.320322,242.77655,20.7
1097235075,1476343,-49001,8.3232,242.77655,20.7
1097437910,1679178,-58019,5.937458,242.77655,20.7
1097694527,1935795,-66845,4.47005,242.77655,20.7
1097906528,2147796,-46415,9.279432,242.77655,20.7
1098072647,2313915,-39305,12.943872,242.77655,20.7
1098218887,2460155,-37012,14.590802,242.77655,20.7
1098389998,2631266,-49940,8.016008,242.77655,20.7
1098795929,0,48789,8.396802,242,19.7
1098953768,157839,35311,16.029122,24.425924,19.7
1099183502,387573,24990,32.016002,80.565384,19.7
1099277251,481322,22586,39.196658,119.762042,19.7
1099365096,569167,21678,42.541088,162.30313,19.7
1099452156,656227,21784,42.1362,204.43933,19.7
1099541743,745814,22815,38.421378,242.860708,19.7
1100037813,1241884,-66966,4.458098,242.860708,19.7
1100236767,1440838,-50198,7.936128,242.860708,19.7
1100494784,1698855,-72902,3.759282,242.860708,19.7
1100751010,1955081,-58710,5.800418,242.860708,19.7
1100946213,2150284,-50000,8,242.860708,19.7
1101113147,2317218,-37340,14.343368,242.860708,19.7
1101256789,2460860,-37066,14.547618,242.860708,19.7
1101434983,2639054,-54942,6.6248,242.860708,19.7
1101761308,0,54853,6.646658,242,20.2
1101936963,175655,38975,13.15845,19.805108,20.2
1102071266,309958,30565,21.398882,41.20399,20.2
1102181019,419711,25866,29.891912,71.095902,20.2
1102278081,516773,23397,36.534152,107.630054,20.2
1102368584,607276,22385,39.908178,147.538232,20.2
1102458284,696976,22459,39.640608,187.17884,20.2
1102550823,789515,23569,35.989128,223.167968,20.2
1103029763,1268455,-66030,4.584392,223.167968,20.2
1103248098,1486790,-55461,6.501618,223.167968,20.2
1103518351,1757043,-80119,3.115008,223.167968,20.2
1103803102,2041794,-62919,5.049842,223.167968,20.2
1104004781,2243473,-48974,8.331362,223.167968,20.2
1104182281,2420973,-40838,11.985408,223.167968,20.2
1104336840,2575532,-39045,13.117442,223.167968,20.2
1104506782,2745474,-47188,8.980322,223.167968,20.2
1104855571,0,51654,7.48845,223,19.3
1105014342,158771,34592,16.7042,24.19265,19.3
1105137877,282306,28950,23.860232,48.052882,19.3
1105242946,387375,24924,32.192288,80.24517,19.3
1105336982,481411,22739,38.667218,118.912388,19.3
1105425300,569729,21857,41.86125,160.773638,19.3
1105512770,657199,21905,41.67845,202.452088,19.3
1105603295,747724,23071,37.567112,240.0192,19.3
1105773292,917721,79620,3.15005,243.16925,19.3
1106095701,1240130,-62316,5.145632,243.16925,19.3
1106312603,1457032,-53783,6.911762,243.16925,19.3
1106566707,1711136,-70266,4.049858,243.16925,19.3
1106852004,1996433,-65793,4.614722,243.16925,19.3
1107074904,2219333,-53798,6.904328,243.16925,19.3
1107251489,2395918,-40876,11.965832,243.16925,19.3
1107408622,2553051,-40242,12.340512,243.16925,19.3
1107599943,2744372,-56174,6.3368,243.16925,19.3
1107955096,0,52609,7.22,243,19.3
1108112809,157713,34192,17.099552,24.319552,19.3
1108233693,278597,28258,25.034888,49.35444,19.3
1108337453,382357,24838,32.417352,81.771792,19.3
1108431470,476374,22747,38.649632,120.421424,19.3
1108519895,564799,21793,42.099488,162.520912,19.3
1108607332,652236,21830,41.9528,204.473712,19.3
1108697243,742147,22901,38.123912,242.597624,19.3
1109140910,1185814,-60748,5.418632,242.597624,19.3
1109338877,1383781,-50276,7.912242,242.597624,19.3
1109583190,1628094,-71196,3.942432,242.597624,19.3
1109860996,1905900,-68245,4.29245,242.597624,19.3
1110061804,2106708,-48172,8.61125,242.597624,19.3
1110233477,2278381,-40451,12.221568,242.597624,19.3
1110393470,2438374,-42085,11.290752,242.597624,19.3
1110592257,2637161,-57758,5.992722,242.597624,19.3
1110898854,0,53195,7.061282,242,20.3
1111067748,168894,37065,14.547618,21.6089,20.3
1111199759,300905,30736,21.164018,42.772918,20.3
1111310920,412066,26250,29.016962,71.78988,20.3
1111409535,510681,23776,35.36405,107.15393,20.3
1111500688,601834,22422,39.765362,146.919292,20.3
1111590157,691303,22310,40.176648,187.09594,20.3
1111681028,782174,23017,37.740672,224.836612,20.3
1111819860,921006,56759,6.202242,231.038854,20.3
1112190114,1291260,-71872,3.869762,231.038854,20.3
1112396145,1497291,-50321,7.896338,231.038854,20.3
1112642579,1743725,-74419,3.607298,231.038854,20.3
1112920547,2021693,-68479,4.2632,231.038854,20.3
1113128200,2229346,-50751,7.7618,231.038854,20.3
1113303450,2404596,-41880,11.395538,231.038854,20.3
1113467908,2569054,-43225,10.699938,231.038854,20.3
1113675015,2776161,-56126,6.343922,231.038854,20.3
1114023876,0,51567,7.519442,231,19.1
1114184648,160772,35430,15.927368,23.44681,19.1
1114310385,286509,29090,23.625938,47.072748,19.1
1114415991,392115,25066,31.824242,78.89699,19.1
1114510159,486283,22729,38.702402,117.599392,19.1
1114598136,574260,21648,42.670322,160.269714,19.1
1114684748,660872,21660,42.614912,202.884626,19.1
1114774109,750233,22687,38.843298,241.727924,19.1
1115202070,1178194,-52925,7.136642,241.727924,19.1
1115392585,1368709,-49482,8.1608,241.727924,19.1
1115663592,1639716,-75163,3.5378,241.727924,19.1
1115937855,1913979,-65250,4.694048,241.727924,19.1
1116146698,2122822,-49065,8.306888,241.727924,19.1
1116320279,2296403,-40800,12.005,241.727924,19.1
1116481124,2457248,-42233,11.205378,241.727924,19.1
1116669712,2645836,-51086,7.659698,241.727924,19.1
1116992671,0,51568,7.519442,241,20.2
1117153919,161248,35589,15.780962,23.300404,20.2
1117279189,286518,29199,23.447552,46.747956,20.2
1117385283,392612,25217,31.44245,78.190406,20.2
1117480351,487680,22960,37.93205,116.122456,20.2
1117569003,576332,21852,41.879552,158.002008,20.2
1117656581,663910,21855,41.86125,199.863258,20.2
1117746291,753620,22826,38.3688,238.232058,20.2
1117889413,896742,58573,5.827698,244.059756,20.2
1118270566,1277895,-72290,3.825378,244.059756,20.2
1118514784,1522113,-60778,5.41205,244.059756,20.2
1118789037,1796366,-71786,3.880898,244.059756,20.2
1119060230,2067559,-62332,5.145632,244.059756,20.2
1119257804,2265133,-46606,9.20205,244.059756,20.2
1119429661,2436990,-42160,11.243282,244.059756,20.2
1119597491,2604820,-42383,11.129762,244.059756,20.2
1119790589,2797918,-56605,6.237512,244.059756,20.2
1120091415,0,54182,6.80805,244,19.3
1120254500,163085,35655,15.724832,22.532882,19.3
1120487221,395806,25241,31.379042,77.304724,19.3
1120582138,490723,22849,38.298752,115.603476,19.3
1120670803,579388,21783,42.1362,157.739676,19.3
1120757911,666496,21716,42.393632,200.133308,19.3
1120846786,755371,22539,39.356192,239.4895,19.3
1120977840,886425,52012,7.388168,246.877668,19.3
1121350461,1259046,-80718,3.065288,246.877668,19.3
1121598795,1507380,-51938,7.41125,246.877668,19.3
1121884780,1793365,-81412,3.015968,246.877668,19.3
1122185481,2094066,-71172,3.94805,246.877668,19.3
1122399952,2308537,-50268,7.912242,246.877668,19.3
1122586327,2494912,-44778,9.972578,246.877668,19.3
1122751557,2660142,-41522,11.596928,246.877668,19.3
1122946067,2854652,-56929,6.167072,246.877668,19.3
1123204530,0,65836,4.608648,246,19.2
1123386874,182344,39858,12.580128,17.188776,19.2
1123524740,320210,31641,19.9712,37.159976,19.2
1123638451,433921,26883,27.661922,64.821898,19.2
1123739034,534504,24122,34.36205,99.183948,19.2
1123831734,627204,22814,38.421378,137.605326,19.2
1123922650,718120,22589,39.178952,176.784278,19.2
1124015362,810832,23570,35.989128,212.773406,19.2
1124494709,1290179,-70145,4.06125,212.773406,19.2
1124725065,1520535,-58337,5.875592,212.773406,19.2
1125013634,1809104,-82889,2.908872,212.773406,19.2
1125342745,2138215,-80204,3.105032,212.773406,19.2
1125570139,2365609,-53201,7.061282,212.773406,19.2
1125768384,2563854,-47510,8.853632,212.773406,19.2
1125946353,2741823,-44037,10.3058,212.773406,19.2
1126144518,2939988,-58487,5.841362,212.773406,19.2
1126549304,187794,39645,12.720968,13.144168,19
1126682854,321344,30445,21.569312,34.71348,19
1126791563,430053,25472,30.81125,65.52473,19
1126887019,525509,22934,38.0192,103.54393,19
1126975329,613819,21715,42.41205,145.95598,19
1127062404,700894,21715,42.41205,188.36803,19
1127151522,790012,22636,39.019778,227.387808,19
1127278296,916786,47766,8.761298,236.149106,19
1127662914,1301404,-68448,4.2632,236.149106,19
1127905886,1544376,-61730,5.242322,236.149106,19
1128190449,1828939,-78051,3.281922,236.149106,19
1128487839,2126329,-67933,4.333568,236.149106,19
1128703459,2341949,-51745,7.465248,236.149106,19
1128887269,2525759,-43225,10.699938,236.149106,19
1129057508,2695998,-44240,10.2152,236.149106,19
1129262789,2901279,-60664,5.431808,236.149106,19
1129514668,0,67044,4.446162,236,19
1129697099,182431,39426,12.862592,17.308754,19
1129833540,318872,31371,20.313938,37.622692,19
1129946476,431808,26626,28.20005,65.822742,19
1130045479,530811,23799,35.296802,101.119544,19
1130136759,622091,22539,39.356192,140.475736,19
1130226449,711781,22397,39.854592,180.330328,19
1130318599,803931,23465,36.312242,216.64257,19
1130783115,1268447,-72918,3.759282,216.64257,19
1130997792,1483124,-49347,8.209352,216.64257,19
1131243344,1728676,-71793,3.875328,216.64257,19
1131537969,2023301,-68324,4.280738,216.64257,19
1131757698,2243030,-52629,7.22,216.64257,19
1131942013,2427345,-43024,10.801952,216.64257,19
1132109843,2595175,-43951,10.35125,216.64257,19
1132333700,2819032,-67297,4.41045,216.64257,19
1132605835,0,64153,4.854728,216,19.4
1132788234,182399,39228,12.994802,17.84953,19.4
1132921375,315540,30595,21.359648,39.209178,19.4
1133032345,426510,26319,28.864802,68.07398,19.4
1133130952,525117,23776,35.36405,103.43803,19.4
1133222902,617067,22608,39.125858,142.563888,19.4
1133313737,707902,22679,38.878562,181.44245,19.4
1133407050,801215,23391,36.55125,217.9937,19.4
1133860553,1254718,-64681,4.780232,217.9937,19.4
1134077007,1471172,-53092,7.091378,217.9937,19.4
1134327118,1721283,-69792,4.101248,217.9937,19.4
1134615163,2009328,-64176,4.854728,217.9937,19.4
1134825738,2219903,-51280,7.605,217.9937,19.4
1135012133,2406298,-44293,10.188098,217.9937,19.4
1135186436,2580601,-46334,9.313928,217.9937,19.4
1135403227,2797392,-65967,4.59045,217.9937,19.4
1135623290,0,220063,0.412232,217,19.8
1135812507,189217,40871,11.965832,12.378064,19.8
1135953747,330457,32715,18.678272,31.056336,19.8
1136071008,447718,27476,26.484642,57.540978,19.8
1136267750,644460,23055,37.619138,128.111078,19.8
1136359816,736526,23021,37.723298,165.834376,19.8
1136454652,831362,24184,34.179912,200.014288,19.8
1136971042,1347752,-74071,3.645,200.014288,19.8
1137202437,1579147,-55667,6.451232,200.014288,19.8
1137469323,1846033,-76208,3.442688,200.014288,19.8
1137778910,2155620,-70157,4.06125,200.014288,19.8
1138001627,2378337,-55386,6.51605,200.014288,19.8
1138206435,2583145,-46641,9.193472,200.014288,19.8
1138379540,2756250,-43669,10.479042,200.014288,19.8
1138569797,2946507,-55544,6.48,200.014288,19.8
1138778378,0,208581,0.458882,200,19
1138968571,190193,40711,12.063872,12.522754,19
1139108206,329828,31968,19.568768,32.091522,19
1139323511,545133,24420,33.53805,93.306372,19
1139417330,638952,23110,37.445858,130.75223,19
1139509777,731399,23100,37.480482,168.232712,19
1139604656,826278,24098,34.428402,202.661114,19
1140082717,1304339,-75220,3.532482,202.661114,19
1140315536,1537158,-58872,5.766408,202.661114,19
1140581615,1803237,-71051,3.959298,202.661114,19
1140871766,2093388,-73831,3.666632,202.661114,19
1141085063,2306685,-50100,7.968032,202.661114,19
1141263269,2484891,-42934,10.848482,202.661114,19
1141436852,2658474,-46043,9.426482,202.661114,19
1141654719,2876341,-66945,4.458098,202.661114,19
1141830032,0,33659,17.6418,202,19.6
1142029712,199680,40975,11.9072,29.549,19.6
1142166693,336661,31346,20.3522,49.9012,19.6
1142382014,551982,24462,33.407138,110.866226,19.6
1142476206,646174,23198,37.1522,148.018426,19.6
1142568019,737987,22919,38.071538,186.089964,19.6
1142662024,831992,23913,34.961522,221.051486,19.6
1142812058,982026,65201,4.700178,225.751664,19.6
1143197576,1367544,-65880,4.602578,225.751664,19.6
1143406615,1576583,-51227,7.620608,225.751664,19.6
1143660888,1830856,-73736,3.677472,225.751664,19.6
1143953613,2123581,-70975,3.964928,225.751664,19.6
1144179217,2349185,-53966,6.867218,225.751664,19.6
1144373968,2543936,-45960,9.46125,225.751664,19.6
1144555038,2725006,-48524,8.4872,225.751664,19.6
1144781206,2951174,-64836,4.755528,225.751664,19.6
1144962591,0,181385,0.607202,225,19.1
1145162668,200077,42881,10.876448,11.48365,19.1
1145306231,343640,32540,18.886658,30.370308,19.1
1145422070,459479,27168,27.0848,57.455108,19.1
1145523713,561122,24404,33.570818,91.025926,19.1
1145617389,654798,23041,37.6712,128.697126,19.1
1145709356,746765,22869,38.228768,166.925894,19.1
1145803237,840646,23851,35.145728,202.071622,19.1
1146249158,1286567,-69158,4.17605,202.071622,19.1
1146473947,1511356,-57461,6.0552,202.071622,19.1
1146753616,1791025,-76762,3.390408,202.071622,19.1
1147046784,2084193,-68832,4.216608,202.071622,19.1
1147264310,2301719,-51460,7.550498,202.071622,19.1
1147458159,2495568,-46272,9.339842,202.071622,19.1
1147632395,2669804,-43482,10.570802,202.071622,19.1
1147837015,2874424,-63130,5.018112,202.071622,19.1
1148130140,0,59621,5.624658,202,18.9
1148312797,182657,40324,12.290882,17.91554,18.9
1148451879,321739,32031,19.481282,37.396822,18.9
1148567676,437536,26934,27.557888,64.95471,18.9
1148670289,540149,24729,32.691698,97.646408,18.9
1148860240,730100,23868,35.095442,168.832858,18.9
1148958802,828662,25193,31.505922,200.33878,18.9
1149359464,1229324,-66463,4.524032,200.33878,18.9
1149567684,1437544,-51678,7.48845,200.33878,18.9
1149835695,1705555,-83036,2.899232,200.33878,18.9
1150144445,2014305,-69350,4.152962,200.33878,18.9
1150364253,2234113,-52663,7.204808,200.33878,18.9
1150556191,2426051,-45381,9.706418,200.33878,18.9
1150720372,2590232,-42533,11.054402,200.33878,18.9
1150932068,2801928,-64186,4.848498,200.33878,18.9
1151204630,0,64496,4.805,200,19.5
1151391927,187297,40852,11.975618,16.780618,19.5
1151528127,323497,31036,20.762568,37.543186,19.5
1151640876,436246,26752,27.945288,65.488474,19.5
1151741629,536999,24396,33.603602,99.092076,19.5
1151835401,630771,22960,37.93205,137.024126,19.5
1151927572,722942,23004,37.792818,174.816944,19.5
1152022051,817421,24033,34.6112,209.428144,19.5
1152462553,1257923,-66861,4.47005,209.428144,19.5
1152664600,1459970,-54136,6.822818,209.428144,19.5
1152961249,1756619,-88958,2.526752,209.428144,19.5
1153272374,2067744,-67023,4.452128,209.428144,19.5
1153483992,2279362,-51624,7.503938,209.428144,19.5
1153673062,2468432,-44786,9.963648,209.428144,19.5
1153840932,2636302,-42219,11.214848,209.428144,19.5
1154049997,2845367,-66832,4.476032,209.428144,19.5
1154463024,189177,40135,12.410162,12.807994,19.5
1154817236,543389,24274,33.932322,93.874838,19.5
1154910203,636356,22935,38.0192,131.894038,19.5
1155001624,727777,22846,38.316258,170.210296,19.5
1155095397,821550,23866,35.1122,205.322496,19.5
1155573324,1299477,-73763,3.67205,205.322496,19.5
1156566282,2292435,-55668,6.451232,205.322496,19.5
1156765814,2491967,-47868,8.727842,205.322496,19.5
1156948927,2675080,-46277,9.3312,205.322496,19.5
1157178359,2904512,-67806,4.345352,205.322496,19.5
1157373849,0,195490,0.522242,205,19.3
1157562789,188940,40327,12.290882,12.813124,19.3
1157699283,325434,31143,20.6082,33.421324,19.3
1157811161,437312,26384,28.7282,62.149524,19.3
1157910313,536464,23930,34.911368,97.060892,19.3
1158002865,629016,22847,38.298752,135.359644,19.3
1158094539,720690,22931,38.0192,173.378844,19.3
1158189234,815385,24128,34.345472,207.724316,19.3
1158633631,1259782,-77007,3.369608,207.724316,19.3
1158901745,1527896,-54334,6.7712,207.724316,19.3
1159122780,1748931,-58494,5.841362,207.724316,19.3
1159357033,1983184,-65248,4.694048,207.724316,19.3
1159578271,2204422,-51292,7.597202,207.724316,19.3
1159734384,2360535,-38074,13.791752,207.724316,19.3
1159944172,2570323,-67889,4.333568,207.724316,19.3
1160944755,0,49161,8.274312,207,16.8
1161103210,158455,35988,15.434568,23.70888,16.8
1161233124,288369,30423,21.595592,45.304472,16.8
1161346848,402093,27419,26.601218,71.90569,16.8
1161451236,506481,25422,30.936978,102.842668,16.8
1161551937,607182,25013,31.952018,134.794686,16.8
1161653230,708475,25542,30.65445,165.449136,16.8
1161780514,835759,45822,9.522248,174.971384,16.8
1162171216,1226461,-58289,5.88245,174.971384,16.8
1162346363,1401608,-44345,10.17005,174.971384,16.8
1162541082,1596327,-52768,7.18205,174.971384,16.8
1162783880,1839125,-68449,4.2632,174.971384,16.8
1162999727,2054972,-50548,7.824968,174.971384,16.8
1163177578,2232823,-42983,10.820552,174.971384,16.8
1163353347,2408592,-45846,9.513522,174.971384,16.8
1163552546,2607791,-56085,6.358178,174.971384,16.8
1163931445,0,53106,7.091378,174,20
1164095424,163979,35842,15.5682,22.659578,20
1164225059,293614,30297,21.78,44.439578,20
1164335504,404059,26278,28.95605,73.395628,20
1164434829,503384,23920,34.9448,108.340428,20
1164527339,595894,22813,38.421378,146.761806,20
1164618457,687012,22772,38.561762,185.323568,20
1164712005,780560,23836,35.19605,220.519618,20
1165176019,1244574,-73183,3.731912,220.519618,20
1165414153,1482708,-52891,7.1442,220.519618,20
1165662503,1731058,-70648,4.00445,220.519618,20
1165963942,2032497,-72514,3.803282,220.519618,20
1166189433,2257988,-52231,7.326792,220.519618,20
1166379928,2448483,-45334,9.72405,220.519618,20
1166560543,2629098,-47312,8.929538,220.519618,20
1166780117,2848672,-62420,5.132808,220.519618,20
1167075311,0,56681,6.223392,220,19
1167248404,173093,37167,14.4722,20.695592,19
1167378948,303637,30782,21.099008,41.7946,19
1167592361,517050,24274,33.932322,103.537804,19
1167686067,610756,23078,37.549778,141.087582,19
1167778413,703102,23051,37.636488,178.72407,19
1167873478,798167,24257,33.981768,212.705838,19
1168351346,1276035,-82146,2.962178,212.705838,19
1168617663,1542352,-60743,5.418632,212.705838,19
1168891616,1816305,-75975,3.463712,212.705838,19
1169185559,2110248,-70029,4.072658,212.705838,19
1169402974,2327663,-51540,7.5272,212.705838,19
1169584367,2509056,-41261,11.741858,212.705838,19
1169742031,2666720,-41685,11.500808,212.705838,19
1169946869,2871558,-56469,6.2658,212.705838,19
1170238200,0,57798,5.9858,212,18.9
1170413617,175417,37417,14.279168,20.264968,18.9
1170543563,305363,30204,21.9122,42.177168,18.9
1170750002,511802,23363,36.6368,108.767768,18.9
1170840839,602639,22424,39.765362,148.53313,18.9
1170930936,692736,22567,39.267522,187.800652,18.9
1171023651,785451,23617,35.853512,223.654164,18.9
1171482471,1244271,-70810,3.987488,223.654164,18.9
1171736035,1497835,-61448,5.294258,223.654164,18.9
1172026542,1788342,-81555,3.006152,223.654164,18.9
1172343667,2105467,-74332,3.61805,223.654164,18.9
1172571856,2333656,-55037,6.595712,223.654164,18.9
1172767010,2528810,-44681,10.017288,223.654164,18.9
1172934752,2696552,-44166,10.251392,223.654164,18.9
1173141818,2903618,-55606,6.465608,223.654164,18.9
1173405252,0,61273,5.326848,223,18.9
1173584874,179622,38471,13.509602,18.83645,18.9
1173719075,313823,30920,20.917512,39.753962,18.9
1173831403,426151,26572,28.320338,68.0743,18.9
1173930956,525704,23990,34.744448,102.818748,18.9
1174023551,618299,22795,38.473992,141.29274,18.9
1174114888,709636,22846,38.316258,179.608998,18.9
1174209582,804330,24244,34.014752,213.62375,18.9
1174649943,1244691,-83357,2.875202,213.62375,18.9
1174888110,1482858,-56435,6.272882,213.62375,18.9
1175166079,1760827,-84243,2.817938,213.62375,18.9
1175486375,2081123,-75706,3.4848,213.62375,18.9
1175721124,2315872,-55901,6.393888,213.62375,18.9
1175912961,2507709,-44483,10.107008,213.62375,18.9
1176084481,2679229,-44127,10.269512,213.62375,18.9
1176285631,2880379,-57789,5.9858,213.62375,18.9
1176582846,0,57165,6.118002,213,18.8
1176751815,168969,35505,15.859712,21.977714,18.8
1176878630,295784,29818,22.485218,44.462932,18.8
1176987304,404458,25742,30.170912,74.633844,18.8
1177084763,501917,23621,35.836578,110.470422,18.8
1177176408,593562,22608,39.125858,149.59628,18.8
1177267426,684580,22711,38.772818,188.369098,18.8
1177360353,777507,23638,35.7858,224.154898,18.8
1177496242,913396,53772,6.911762,231.06666,18.8
1177899624,1316778,-80572,3.080162,231.06666,18.8
1178136096,1553250,-54381,6.756488,231.06666,18.8
1178375346,1792500,-68641,4.239872,231.06666,18.8
1178696680,2113834,-80422,3.090098,231.06666,18.8
1178942206,2359360,-57892,5.965058,231.06666,18.8
1179141354,2558508,-46738,9.150642,231.06666,18.8
1179316642,2733796,-43609,10.515698,231.06666,18.8
1179508467,2925621,-53982,6.859808,231.06666,18.8
1179832088,0,57012,6.153032,231,18.4
1180007120,175032,38088,13.78125,19.934282,18.4
1180144456,312368,32097,19.40645,39.340732,18.4
